{
  "trip": {
    "title": "히로시마 여행",
    "dates": "2025년 11월 7일 - 11월 11일",
    "days": [
      {
        "id": 1,
        "date": "11/7 (금)",
        "title": "첫째 날 - 히로시마 도착 & 시내 탐방",
        "summary": "호텔 체크인 후 대관산과 히로시마 시내를 둘러보며 현지 음식 맛보기",
        "image": "https://images.unsplash.com/photo-1590559899731-a382839e5549?w=800",
        "places": [
          {
            "name": "代官山 Candy Apple｜パルコ広島店",
            "type": "쇼핑",
            "time": "",
            "address": "히로시마 파르코",
            "description": "대관산의 유명 캔디 스토어. 귀여운 사탕과 디저트를 구경할 수 있습니다.",
            "mapUrl": "https://maps.app.goo.gl/6EKgM4JsHqJPkVbi8?g_st=ipc",
            "coordinates": { "lat": 34.39212, "lng": 132.46265 },
            "tags": ["쇼핑", "디저트"]
          },
          {
            "name": "KIRO Hiroshima by THE SHARE HOTELS",
            "type": "숙소",
            "time": "체크인",
            "address": "히로시마 시내",
            "description": "히로시마 중심부에 위치한 모던한 호텔. 편리한 접근성과 세련된 디자인이 특징입니다.",
            "mapUrl": "https://maps.app.goo.gl/bTTJDMfWKnk47JzA9?g_st=ipc",
            "coordinates": { "lat": 34.390705, "lng": 132.4618235 },
            "tags": ["숙소", "호텔"]
          },
          {
            "name": "Caffè Ponte",
            "type": "식당",
            "time": "점심",
            "address": "히로시마 시내",
            "description": "이탈리안 스타일의 카페. 파스타와 커피가 맛있는 곳입니다.",
            "mapUrl": "https://maps.app.goo.gl/gNY6ExRzNa51ewD38?g_st=ipc",
            "coordinates": { "lat": 34.394, "lng": 132.456 },
            "tags": ["점심", "카페", "이탈리안"]
          },
          {
            "name": "ALOFT 大手町店",
            "type": "카페",
            "time": "",
            "address": "오테마치",
            "description": "세련된 분위기의 카페. 커피와 디저트를 즐기기 좋습니다.",
            "mapUrl": "https://maps.app.goo.gl/isGaMRKt7jcGo33m7?g_st=ipc",
            "coordinates": { "lat": 34.396, "lng": 132.453 },
            "tags": ["카페", "디저트"]
          },
          {
            "name": "Marugame Seimen",
            "type": "식당",
            "time": "저녁 옵션1",
            광",
            "address": "히로시마 시내",
            "description": "어린이와 가족을 위한 과학 체험 박물관. 다양한 전시와 체험 활동이 있습니다.",
            "mapUrl": "https://maps.app.goo.gl/EgaFNsNAQjt7eFKC6?g_st=ipc",
            "coordinates": { "lat": 34.405, "lng": 132.455 },
            "tags": ["관광", "박물관", "체험"]
          },
          {
            "name": "한국/조선인 원폭 희생자 위령비",
            "type": "관광",
            "time": "오후 관광",
            "address": "평화 공원",
            "description": "원폭으로 희생된 한국인들을 추모하는 위령비. 역사적 의미가 깊은 장소입니다.",
            "mapUrl": "https://maps.app.goo.gl/rZGBLBsjfR512Efw7?g_st=ipc",
            "coordinates": { "lat": 34.39319, "lng": 132.45475 },
            "tags": ["관광", "역사", "추모"]
          },
          {
            "name": "히로시마 안데르센",
            "type": "식당",
            "time": "저녁",
            "address": "히로시마 시내",
            "description": "덴마크 스타일의 베이커리 레스토랑. 저녁 뷔페로 다양한 빵과 요리를 즐길 수 있습니다.",
            "mapUrl": "https://maps.app.goo.gl/uDzrwCJUPP6ezyor9?g_st=ipc",
            "coordinates": { "lat": 34.393042, "lng": 132.458408 },
            "tags": ["저녁", "뷔페", "베이커리"]
          }
        ]
      },
      {
        "id": 5,
        "date": "11/11 (화)",
        "title": "마지막 날 - 귀국",
        "summary": "아쉬운 작별, 히로시마에서의 추억을 안고 귀국하는 날",
        "image": "https://images.unsplash.com/photo-1436491865332-7a61a109cc05?w=800",
        "places": []
      }
    ]
  }
}
